[{"id":1,"name":"CityFit Fitness Gdańsk","latitude":"54.4040","longitude":"18.5714","address":"al. Grunwaldzka 472, 80-309 Gdańsk","telephone":"0048 22 584 57 22","mail":"f.gadomski@cityfit.pl","website":"http://cityfit.pl/kluby/gdansk/","start_h":"0","start_m":"0","end_h":"23","end_m":"59","functions":["silownia","fitness","zajecia dla dzieci","solarium","sztuki walki","jacuzzi","zumba"]},
{"id":2,"name":"Tiger Gym - CH Manhattan","latitude":"54.3773","longitude":"18.6071","address":"al. Grunwaldzka 80, 80-244 Gdańsk","telephone":"0048 58 767 76 70","mail":"recepcja.manhattan@tigergym.pl","website":"http://www.tigergym.pl/klub,1,oferta,3,1,1001.html","start_h":"6","start_m":"30","end_h":"23","end_m":"00","functions":["silownia","zajecia dla dzieci","sztuki walki","solarium","fitness","zumba","kregle"]},
{"id":3,"name":"My Gym - Gdańsk Osowa","latitude":"54.4322","longitude":"18.4794","address":"ul. Spacerowa 65, 80-299 Gdańsk","telephone":"0048 530 524 963","mail":"osowa@mygym.pl","website":"http://mygym.pl","start_h":"6","start_m":"30","end_h":"22","end_m":"00","functions":["silownia","zumba","zajecia dla dzieci"]},
{"id":4,"name":"NH Fitness Gdańsk","latitude":"54.3026","longitude":"18.5773","address":"ul. Klasyczna 2, 80-180 Gdańsk","telephone":"0048 502 388 011","mail":"biuro@nhfitness.pl","website":"http://www.activklub.pl/83/gdansk-nh-fitness","start_h":"6","start_m":"30","end_h":"22","end_m":"00","functions":["sztuki walki","zumba","solarium","basen","fitness"]},
{"id":5,"name":"Calypso Fitness Club Gdańsk Madison","latitude":"54.3566","longitude":"18.6485","address":"ul. Rajska 10, 80-850 Gdańsk","telephone":"0048 58 766 74 62","mail":"gdansk@calypso.com.pl","website":"https://www.calypso.com.pl/klub/calypso-gdansk-madison","start_h":"7","start_m":"00","end_h":"23","end_m":"00","functions":["fitness","scianka wspinaczkowa","silownia","solarium","sztuki walki","zumba","crossfit"]},
{"id":6,"name":"Tiger Gym Alchemia","latitude":"54.3995","longitude":"18.5764","address":"al. Grunwaldzka 411, 80-309 Gdańsk","telephone":"0048 58 764 62 62","mail":"recepcja.alchemia@tigergym.pl","website":"http://www.tigergym.pl/klub,1,oferta,3,7,1007.html","start_h":"6","start_m":"00","end_h":"22","end_m":"00","functions":["scianka wspinaczkowa","basen","crossfit","taniec towarzyski","zumba","fitness"]},
{"id":7,"name":"Fit4less - Gdańsk Chełm","latitude":"54.3304","longitude":"18.6057","address":"ul. Nieborowska 10, 80-034 Gdańsk","telephone":"0048 58 301 92 98","mail":"info@fit4lesspolska.pl","website":"http://fit4lesspolska.pl","start_h":"6","start_m":"00","end_h":"23","end_m":"00","functions":["fitness","sauna","silownia","zumba"]},
{"id":8,"name":"Calypso Fitness Gdańsk Morena","latitude":"54.3529","longitude":"18.5938","address":"ul. Schuberta 104a, 80-172 Gdańsk","telephone":"0048 58 500 87 42","mail":"gdansk@calypso.com.pl","website":"https://www.calypso.com.pl/klub/calypso-gdansk-morena","start_h":"6","start_m":"00","end_h":"23","end_m":"00","functions":["zajecia dla dzieci","sztuki walki","zumba","fitness","crossfit","solarium","silownia"]},
{"id":9,"name":"Beauty Derm Instytut Centrum SPA","latitude":"54.4231","longitude":"18.5972","address":"ul. Kapliczna 30, 80-001 Gdańsk","telephone":"0048 58 511 30 51","mail":"spaposejdon@beautyderm.com.pl","website":"http://beautydermspa.pl/","start_h":"8","start_m":"00","end_h":"22","end_m":"00","functions":["basen","jacuzzi","masaz wodny","solarium"]},
{"id":10,"name":"Fit&Sun Studio Doskonalenia Ciała","latitude":"54.4002","longitude":"18.6748","address":"ul. Na Zaspę 3, 80-001 Gdańsk","telephone":"0048 58 350 86 44","mail":"fitsuun@gmail.com","website":"http://fit-sun.com.pl","start_h":"10","start_m":"00","end_h":"21","end_m":"00","functions":["taniec towarzyski","jacuzzi","crossfit","solarium","silownia"]},
{"id":11,"name":"Fitness Leon","latitude":"54.3456","longitude":"18.5326","address":"ul. Kartuska 422a, 80-125 Gdańsk","telephone":"0048 58 300 40 50","mail":"fitness@fitnessleon.pl","website":"http://www.fitnessleon.pl/","start_h":"7","start_m":"00","end_h":"22","end_m":"00","functions":["silownia","sauna","basen","zajecia dla dzieci","solarium","sztuki walki"]},
{"id":12,"name":"Premium Fitness & Gym","latitude":"54.3606","longitude":"18.5878","address":"ul. Dobrowolskiego 6, 80-287 Gdańsk","telephone":"0048 515 416 816","mail":"oferta@premiumgym.pl","website":"http://premiumgym.pl/morena/","start_h":"0","start_m":"0","end_h":"23","end_m":"59","functions":["fitness","silownia","zajecia dla dzieci","zumba","taniec towarzyski","fitness"]},
{"id":13,"name":"BlokFit Boulder Center","latitude":"54.3823","longitude":"18.5963","address":"al. Słowackiego 1a, 80-257 Gdańsk","telephone":"0048 58 728 49 55","mail":"info@blokfit.pl","website":"https://www.blokfit.pl","start_h":"10","start_m":"00","end_h":"23","end_m":"00","functions":["sztuki walki","scianka wspinaczkowa","silownia"]},
{"id":14,"name":"Pływalnia Chełm","latitude":"54.3397","longitude":"18.6209","address":"ul. Chałubińskiego 13, 80-807 Gdańsk","telephone":"0048 58 320 74 31","mail":"biuro@sportgdansk.pl","website":"http://www.sportgdansk.pl/obiekty/plywalnia-ul-chalubinskiego-13/","start_h":"7","start_m":"00","end_h":"22","end_m":"00","functions":["basen","zajecia dla dzieci","jacuzzi","fitness","solarium"]},
{"id":15,"name":"City Fitness","latitude":"54.3245","longitude":"18.6100","address":"ul. Kurierów Armii Krajowej 15, 80-041 Gdańsk","telephone":"0048 58 670 41 00","mail":"biuro@cityfitness.com.pl","website":"http://cityfitness.com.pl","start_h":"6","start_m":"00","end_h":"23","end_m":"00","functions":["kregle","taniec towarzyski","silownia","fitness","crossfit"]},
{"id":16,"name":"Klub Fitness Marlet","latitude":"54.4167","longitude":"18.5909","address":"ul. Piastowska 90e, 80-352 Gdańsk","telephone":"0048 58 558 53 56","mail":"marlet@marlet.com.pl","website":"http://www.marlet.com.pl","start_h":"13","start_m":"00","end_h":"20","end_m":"00","functions":["silownia","fitness","taniec towarzyski","zajecia dla dzieci","solarium"]},
{"id":17,"name":"Elewator scianka Wspinaczkowa","latitude":"54.4073","longitude":"18.5743","address":"ul. Droszyńskiego 15, 80-381 Gdańsk","telephone":"048 58 558 14 03","mail":"biuro@elewator.com","website":"https://www.elewator.com","start_h":"10","start_m":"00","end_h":"22","end_m":"00","functions":["scianka wspinaczkowa","zajecia dla dzieci"]},
{"id":18,"name":"Matrix Fitness","latitude":"54.3814","longitude":"18.6129","address":"ul. Wajdeloty 28, 80-437 Gdańsk","telephone":"0048 58 341 22 26","mail":"gdansk@matrixfitness.com.pl","website":"http://www.matrixfitness.com.pl/gdansk/","start_h":"8","start_m":"00","end_h":"22","end_m":"00","functions":["silownia","crossfit","zajecia dla dzieci","fitness"]},
{"id":19,"name":"Klub Sportowy WorkOut","latitude":"54.3418","longitude":"18.6539","address":"ul. Toruńska 20, 80-747 Gdańsk","telephone":"0048 518 235 835","mail":"ksworkout.gda@gmail.com","website":"http://www.ksworkout.pl","start_h":"9","start_m":"00","end_h":"22","end_m":"00","functions":["crossfit","fitness","silownia"]},
{"id":20,"name":"All Time Fitness","latitude":"54.3278","longitude":"18.6148","address":"ul. Fieldorfa 2, 80-041 Gdańsk","telephone":"0048 733 226 787","mail":"info@alltimefitness.pl","website":"http://alltimefitness.pl","start_h":"6","start_m":"00","end_h":"22","end_m":"00","functions":["crossfit", "silownia", "zajecia dla dzieci", "fitness", "solarium"]}]

